objectid,title,description,date,type,format,families,subjects,people,location,latitude,longitude,source,rights
photo_001,"Toledo Family Portrait, 1920s","Three generations of the Toledo family gathered for a formal portrait in Wisconsin.","circa 1920","Image","image/jpeg","Toledo;Shipshewana","Family Portraits;Gatherings","Maria Toledo;Joseph Toledo;Anna Toledo","Wisconsin",43.7844,-88.7879,"Toledo Family Collection","In Copyright - Educational Use Permitted"
photo_002,"Potawatomi Trail of Death Memorial","Photograph of the Trail of Death memorial marker commemorating the 1838 forced removal.","2015-09-15","Image","image/jpeg","","Trail of Death;Memorials;Removal","","Twin Lakes, Indiana",41.2167,-86.1631,"Archive Staff","CC BY-NC 4.0"
photo_003,"Wabaunsee Family Reunion","Large family gathering at the annual Wabaunsee family reunion in Kansas.","1985-07-04","Image","image/jpeg","Wabaunsee;Bourassa;Nadeau","Family Reunions;Gatherings","Robert Wabaunsee;Sarah Bourassa","Topeka, Kansas",39.0558,-95.6890,"Wabaunsee Family Collection","In Copyright - Educational Use Permitted"
photo_004,"Children at Mission School","Group photograph of Potawatomi children at the St. Mary's Mission School.","circa 1915","Image","image/jpeg","","Education;Mission Schools;Children","","St. Marys, Kansas",39.1939,-96.0711,"Kansas State Historical Society","Public Domain"
photo_005,"Traditional Dance at Pow Wow","Dancers in traditional regalia at the annual Potawatomi Gathering.","2018-08-12","Image","image/jpeg","Wishkeno;Toledo","Pow Wow;Dance;Culture","Michael Wishkeno","Dowagiac, Michigan",41.9842,-86.1086,"Submitted by Community Member","CC BY-NC 4.0"
